[
    {
        "lat": 48.9949189,
        "lon": 8.38931904,
        "name": "Karlsruhe Barbarossaplatz",
        "stop_id": "de:8212:5003"
    },
    {
        "lat": 48.99283258,
        "lon": 8.38928989,
        "name": "Karlsruhe Gebhardstra\u00dfe",
        "stop_id": "de:8212:5004"
    },
    {
        "lat": 48.99247204,
        "lon": 8.38574152,
        "name": "Karlsruhe Breite Str.",
        "stop_id": "de:8212:5005"
    },
    {
        "lat": 48.99049664,
        "lon": 8.38459071,
        "name": "Karlsruhe Neue Anlage Str.",
        "stop_id": "de:8212:5006"
    },
    {
        "lat": 48.9878486,
        "lon": 8.38041504,
        "name": "Karlsruhe Gr\u00fcnwinkler Str.",
        "stop_id": "de:8212:5007"
    },
    {
        "lat": 48.98885391,
        "lon": 8.37674075,
        "name": "Karlsruhe Landgrabenstra\u00dfe",
        "stop_id": "de:8212:5008"
    },
    {
        "lat": 48.98681522,
        "lon": 8.36076685,
        "name": "Oberreut R.-Breitscheid-Str.",
        "stop_id": "de:8212:5012"
    },
    {
        "lat": 48.9852967,
        "lon": 8.3593517,
        "name": "Oberreut Joh.-Kirchner-Str.",
        "stop_id": "de:8212:5013"
    },
    {
        "lat": 48.98474604,
        "lon": 8.35573822,
        "name": "Oberreut Eugen-Geck-Str.",
        "stop_id": "de:8212:5014"
    },
    {
        "lat": 48.98579142,
        "lon": 8.37744842,
        "name": "Karlsruhe Petergraben",
        "stop_id": "de:8212:5015"
    },
    {
        "lat": 48.98321251,
        "lon": 8.37446125,
        "name": "Karlsruhe Bulach Friedhof",
        "stop_id": "de:8212:5016"
    },
    {
        "lat": 48.98678631,
        "lon": 8.36530332,
        "name": "Oberreut Bernh.-Lichtenbg-Str.",
        "stop_id": "de:8212:5017"
    },
    {
        "lat": 48.99091276,
        "lon": 8.39184121,
        "name": "Karlsruhe Stephanienbad",
        "stop_id": "de:8212:5202"
    },
    {
        "lat": 48.98766242,
        "lon": 8.39446311,
        "name": "Karlsruhe Neckarplatz",
        "stop_id": "de:8212:5203"
    },
    {
        "lat": 48.98622659,
        "lon": 8.39330551,
        "name": "Karlsruhe Weiherhof",
        "stop_id": "de:8212:5204"
    },
    {
        "lat": 48.98227282,
        "lon": 8.39041623,
        "name": "Karlsruhe Belchenplatz",
        "stop_id": "de:8212:5205"
    },
    {
        "lat": 48.98395701,
        "lon": 8.39605183,
        "name": "Karlsruhe Enzstra\u00dfe",
        "stop_id": "de:8212:5206"
    },
    {
        "lat": 48.98441393,
        "lon": 8.39917498,
        "name": "Karlsruhe N\u00fcrnberger Str.",
        "stop_id": "de:8212:5207"
    },
    {
        "lat": 48.99855655,
        "lon": 8.3885366,
        "name": "Karlsruhe S\u00fcdendschule",
        "stop_id": "de:8212:5504"
    },
    {
        "lat": 48.99879025,
        "lon": 8.3834499,
        "name": "Karlsruhe Lorenzstr./ZKM",
        "stop_id": "de:8212:5505"
    },
    {
        "lat": 48.99965788,
        "lon": 8.38091089,
        "name": "Karlsruhe St. Vincent.Krankh.",
        "stop_id": "de:8212:5508"
    },
    {
        "lat": 49.00243801,
        "lon": 8.38120444,
        "name": "Karlsruhe Holtzstra\u00dfe",
        "stop_id": "de:8212:5509"
    },
    {
        "lat": 49.00020415,
        "lon": 8.36887749,
        "name": "Karlsruhe Griesbachstra\u00dfe",
        "stop_id": "de:8212:5513"
    },
    {
        "lat": 48.99928649,
        "lon": 8.36879342,
        "name": "Karlsruhe Junker-u.-Ruh-Str.",
        "stop_id": "de:8212:5514"
    },
    {
        "lat": 49.00048596,
        "lon": 8.36615425,
        "name": "Karlsruhe Benzstra\u00dfe",
        "stop_id": "de:8212:5515"
    },
    {
        "lat": 49.00455891,
        "lon": 8.36443509,
        "name": "Karlsruhe Liststra\u00dfe",
        "stop_id": "de:8212:5516"
    },
    {
        "lat": 49.00736266,
        "lon": 8.35600689,
        "name": "Karlsruhe Blohnstra\u00dfe",
        "stop_id": "de:8212:6002"
    },
    {
        "lat": 49.00527688,
        "lon": 8.35607479,
        "name": "Gr\u00fcnwinkel Friedhof",
        "stop_id": "de:8212:6003"
    },
    {
        "lat": 49.0030214,
        "lon": 8.35634988,
        "name": "Karlsruhe Sinner (Zeppelinstr)",
        "stop_id": "de:8212:6004"
    },
    {
        "lat": 49.00236735,
        "lon": 8.36326026,
        "name": "Karlsruhe Westbahnhof",
        "stop_id": "de:8212:6005"
    },
    {
        "lat": 48.99883765,
        "lon": 8.36238962,
        "name": "Karlsruhe Birkenweg",
        "stop_id": "de:8212:6006"
    },
    {
        "lat": 48.99584121,
        "lon": 8.36039171,
        "name": "Karlsruhe Hornisgrindestra\u00dfe",
        "stop_id": "de:8212:6007"
    },
    {
        "lat": 49.00267286,
        "lon": 8.35512432,
        "name": "Karlsruhe Sinner (Durm. Str.)",
        "stop_id": "de:8212:6008"
    },
    {
        "lat": 48.99389989,
        "lon": 8.35090579,
        "name": "Karlsruhe Wattkopfstra\u00dfe",
        "stop_id": "de:8212:6009"
    },
    {
        "lat": 48.99684029,
        "lon": 8.35410636,
        "name": "Karlsruhe Edelbergstra\u00dfe",
        "stop_id": "de:8212:6010"
    },
    {
        "lat": 48.99099136,
        "lon": 8.34699465,
        "name": "Karlsruhe Staufenbergweg",
        "stop_id": "de:8212:6011"
    },
    {
        "lat": 49.00277408,
        "lon": 8.36038493,
        "name": "Karlsruhe Andreas-Hofer-Str.",
        "stop_id": "de:8212:6012"
    },
    {
        "lat": 49.00018168,
        "lon": 8.35025016,
        "name": "Karlsruhe Durmersheimer Str.",
        "stop_id": "de:8212:6205"
    },
    {
        "lat": 48.99916472,
        "lon": 8.35009939,
        "name": "Karlsruhe St. Josefs-Kirche",
        "stop_id": "de:8212:6206"
    },
    {
        "lat": 48.99645696,
        "lon": 8.34830343,
        "name": "Karlsruhe T\u00dcV",
        "stop_id": "de:8212:6207"
    },
    {
        "lat": 48.99337379,
        "lon": 8.34532374,
        "name": "Karlsruhe Eichelbergstra\u00dfe",
        "stop_id": "de:8212:6208"
    },
    {
        "lat": 48.99203248,
        "lon": 8.34823817,
        "name": "Karlsruhe Bernsteinstra\u00dfe",
        "stop_id": "de:8212:6209"
    },
    {
        "lat": 48.99476472,
        "lon": 8.36410875,
        "name": "Karlsruhe Schwimmschulweg",
        "stop_id": "de:8212:6213"
    },
    {
        "lat": 48.99100956,
        "lon": 8.37131654,
        "name": "Karlsruhe Windeckstra\u00dfe",
        "stop_id": "de:8212:6215"
    },
    {
        "lat": 48.98924237,
        "lon": 8.37541053,
        "name": "Karlsruhe Bulach West",
        "stop_id": "de:8212:6216"
    },
    {
        "lat": 48.994884,
        "lon": 8.38276019,
        "name": "Karlsruhe Beiertheim West",
        "stop_id": "de:8212:6217"
    },
    {
        "lat": 48.99528282,
        "lon": 8.38503736,
        "name": "Karlsruhe Welfenstra\u00dfe",
        "stop_id": "de:8212:6218"
    },
    {
        "lat": 49.0020201,
        "lon": 8.34302367,
        "name": "Daxlanden Aug.-Dosenbach-Str.",
        "stop_id": "de:8212:6220"
    },
    {
        "lat": 49.01440389,
        "lon": 8.38577247,
        "name": "Karlsruhe Kunstak./Hochschule",
        "stop_id": "de:8212:7003"
    },
    {
        "lat": 49.0313254,
        "lon": 8.38717784,
        "name": "Karlsruhe Heidehof",
        "stop_id": "de:8212:7009"
    },
    {
        "lat": 49.03614646,
        "lon": 8.38069068,
        "name": "Neureut Flughafenstra\u00dfe",
        "stop_id": "de:8212:7012"
    },
    {
        "lat": 49.03650801,
        "lon": 8.37436761,
        "name": "Karlsruhe Kaiserslauterner Str",
        "stop_id": "de:8212:7013"
    },
    {
        "lat": 49.03867877,
        "lon": 8.37008679,
        "name": "Karlsruhe Schweigener Str.",
        "stop_id": "de:8212:7014"
    },
    {
        "lat": 49.0370539,
        "lon": 8.3672899,
        "name": "Karlsruhe Wei\u00dfenburger Str.",
        "stop_id": "de:8212:7015"
    },
    {
        "lat": 49.03311076,
        "lon": 8.36480992,
        "name": "Karlsruhe Germersheimer Str.",
        "stop_id": "de:8212:7016"
    },
    {
        "lat": 49.03075553,
        "lon": 8.36493563,
        "name": "Karlsruhe Berliner Str.",
        "stop_id": "de:8212:7017"
    },
    {
        "lat": 49.02689239,
        "lon": 8.3655591,
        "name": "Karlsruhe Madenburgweg",
        "stop_id": "de:8212:7018"
    },
    {
        "lat": 49.02343324,
        "lon": 8.36606796,
        "name": "Karlsruhe Barbaraweg",
        "stop_id": "de:8212:7019"
    },
    {
        "lat": 49.0534676,
        "lon": 8.39988918,
        "name": "Neureut Blankenlocher Weg",
        "stop_id": "de:8212:7020"
    },
    {
        "lat": 49.01635252,
        "lon": 8.36208391,
        "name": "Karlsruhe K\u00e4rcherstra\u00dfe",
        "stop_id": "de:8212:7021"
    },
    {
        "lat": 49.05646374,
        "lon": 8.40023621,
        "name": "Neureut Kirchfeld Fortuna",
        "stop_id": "de:8212:7023"
    },
    {
        "lat": 49.059348,
        "lon": 8.39981838,
        "name": "Neureut Kirchfeld Nord",
        "stop_id": "de:8212:7024"
    },
    {
        "lat": 49.04291741,
        "lon": 8.36906209,
        "name": "Neureut Gro\u00dfschneidersweg",
        "stop_id": "de:8212:7102"
    },
    {
        "lat": 49.0441846,
        "lon": 8.36729519,
        "name": "Neureut Neureuter Hauptstr.",
        "stop_id": "de:8212:7103"
    },
    {
        "lat": 49.04693765,
        "lon": 8.37085795,
        "name": "Neureut Waldenserkirche",
        "stop_id": "de:8212:7104"
    },
    {
        "lat": 49.05011534,
        "lon": 8.3748125,
        "name": "Neureut Bachenweg",
        "stop_id": "de:8212:7105"
    },
    {
        "lat": 49.05208502,
        "lon": 8.37822169,
        "name": "Neureut Mitteltorstra\u00dfe",
        "stop_id": "de:8212:7107"
    },
    {
        "lat": 49.05485059,
        "lon": 8.38082775,
        "name": "Neureut Kirche",
        "stop_id": "de:8212:7108"
    },
    {
        "lat": 49.05751572,
        "lon": 8.38484462,
        "name": "Neureut Friedhof",
        "stop_id": "de:8212:7109"
    },
    {
        "lat": 49.05865432,
        "lon": 8.38084891,
        "name": "Neureut Am Zinken",
        "stop_id": "de:8212:7110"
    },
    {
        "lat": 49.06377438,
        "lon": 8.37319066,
        "name": "Neureut Am Bachkanal",
        "stop_id": "de:8212:7111"
    },
    {
        "lat": 49.06686699,
        "lon": 8.36977159,
        "name": "Neureut Im Kleinen Bruch",
        "stop_id": "de:8212:7112"
    },
    {
        "lat": 49.06398487,
        "lon": 8.37056066,
        "name": "Neureut Dammweg",
        "stop_id": "de:8212:7113"
    },
    {
        "lat": 49.04565736,
        "lon": 8.38187208,
        "name": "Neureut Gr\u00fcnewaldstr.",
        "stop_id": "de:8212:7202"
    },
    {
        "lat": 49.0449746,
        "lon": 8.39044353,
        "name": "Neureut Sp\u00f6cker Stra\u00dfe",
        "stop_id": "de:8212:7203"
    },
    {
        "lat": 49.04567596,
        "lon": 8.39385472,
        "name": "Neureut An der Trift",
        "stop_id": "de:8212:7204"
    },
    {
        "lat": 49.04719008,
        "lon": 8.39623023,
        "name": "Neureut Moldaustra\u00dfe",
        "stop_id": "de:8212:7205"
    },
    {
        "lat": 49.04988923,
        "lon": 8.39652587,
        "name": "Neureut Donauschwabenstr.",
        "stop_id": "de:8212:7206"
    },
    {
        "lat": 49.05292382,
        "lon": 8.39562723,
        "name": "Neureut Forlenweg",
        "stop_id": "de:8212:7207"
    },
    {
        "lat": 49.04761522,
        "lon": 8.38142374,
        "name": "Neureut Holbeinstra\u00dfe",
        "stop_id": "de:8212:7210"
    },
    {
        "lat": 49.01437103,
        "lon": 8.39830872,
        "name": "Karlsruhe Linkenheimer Tor",
        "stop_id": "de:8212:7302"
    },
    {
        "lat": 49.02382272,
        "lon": 8.39678644,
        "name": "Karlsruhe Sch\u00fctzenhaus",
        "stop_id": "de:8212:7303"
    },
    {
        "lat": 49.03033559,
        "lon": 8.39557269,
        "name": "Karlsruhe Am Kanalweg",
        "stop_id": "de:8212:7304"
    },
    {
        "lat": 49.03294967,
        "lon": 8.39507606,
        "name": "Karlsruhe Wei\u00dfes Haus",
        "stop_id": "de:8212:7305"
    },
    {
        "lat": 49.04018745,
        "lon": 8.39321019,
        "name": "Neureut Alte Kreisstra\u00dfe",
        "stop_id": "de:8212:7306"
    },
    {
        "lat": 49.0424652,
        "lon": 8.39032374,
        "name": "Neureut Am Hubengut",
        "stop_id": "de:8212:7307"
    },
    {
        "lat": 49.02642,
        "lon": 8.37456247,
        "name": "Karlsruhe Stresemannstr.",
        "stop_id": "de:8212:7402"
    },
    {
        "lat": 49.02781107,
        "lon": 8.37406644,
        "name": "Karlsruhe Wilhelm-Kolb-Str.",
        "stop_id": "de:8212:7403"
    },
    {
        "lat": 49.03040772,
        "lon": 8.37038266,
        "name": "Karlsruhe Landauer Str.",
        "stop_id": "de:8212:7404"
    },
    {
        "lat": 49.03398809,
        "lon": 8.3706657,
        "name": "Karlsruhe Frankenthaler Str.",
        "stop_id": "de:8212:7405"
    },
    {
        "lat": 49.03521243,
        "lon": 8.3725786,
        "name": "Karlsruhe Trierer Str.",
        "stop_id": "de:8212:7406"
    },
    {
        "lat": 49.03114778,
        "lon": 8.36106058,
        "name": "Karlsruhe Binger Str.",
        "stop_id": "de:8212:7412"
    },
    {
        "lat": 49.03276233,
        "lon": 8.35548763,
        "name": "Knielingen Husarenlager",
        "stop_id": "de:8212:7413"
    },
    {
        "lat": 49.03518392,
        "lon": 8.35116201,
        "name": "Knielingen Annweiler Stra\u00dfe",
        "stop_id": "de:8212:7414"
    },
    {
        "lat": 49.03330073,
        "lon": 8.34728893,
        "name": "Knielingen Sudetenstra\u00dfe",
        "stop_id": "de:8212:7415"
    },
    {
        "lat": 49.03652271,
        "lon": 8.34303438,
        "name": "Knielingen Landeckstra\u00dfe",
        "stop_id": "de:8212:7416"
    },
    {
        "lat": 49.03469109,
        "lon": 8.34036432,
        "name": "Knielingen Reinmuthstra\u00dfe",
        "stop_id": "de:8212:7417"
    },
    {
        "lat": 49.03662175,
        "lon": 8.33676919,
        "name": "Knielingen Jakob-D\u00f6rr-Str.",
        "stop_id": "de:8212:7501"
    },
    {
        "lat": 49.0397708,
        "lon": 8.34180166,
        "name": "Knielingen Kolbeng\u00e4rten",
        "stop_id": "de:8212:7503"
    },
    {
        "lat": 49.03975297,
        "lon": 8.33555129,
        "name": "Knielingen Bruchweg",
        "stop_id": "de:8212:7505"
    },
    {
        "lat": 49.04158721,
        "lon": 8.33865911,
        "name": "Knielingen Max-Dortu-Str.",
        "stop_id": "de:8212:7506"
    },
    {
        "lat": 49.0913677,
        "lon": 8.42802059,
        "name": "KIT Campus-Nord S\u00fcdtor",
        "stop_id": "de:8212:7619"
    }
]